id,mainImage,marker,locationName,address,locationLink,price,price-sqft,area-sqft,acres,link,documents,latitude,longitude,locationType
london-1,1-Hanover.jpg,,1 Hanover Terrace,"1 Hanover Terrace, London, England, NW1 4RJ United Kingdom",,"£29,000,000","£5,282"," 5,490 ",0.15,https://www.sothebysrealty.com/eng/sales/detail/180-l-691-wxgef9/1-hanover-terrace-london-en-nw1-4rj,,51.527311,-0.162193,
london-2,Victory-House.jpg,,Victory House,"Victory House, London, EN, W8 5RF United Kingdom",,"£22,500,000","£3,531"," 6,373 ",,https://www.sothebysrealty.com/eng/sales/detail/180-l-691-4bmcby/victory-house-london-en-w8-5rf,,51.511133,-0.129751,
london-3,Hamilton-Terrace.jpg,,Hamilton Terrace,"Hamilton Terrace, St. John's Wood, NW8 London, En, NW8 9UJ United Kingdom",,"£17,500,000","£1,407"," 12,435 ",,https://www.sothebysrealty.com/eng/sales/detail/180-l-691-s23vhr/hamilton-terrace-st-johns-wood-nw8-london-en-nw8-9uj,,51.529508,-0.180061,
london-4,Woodlands.jpg,,Woodlands,"Woodlands, Courtenay Avenue, London, EN, N6 4LR United Kingdom",,"£16,950,000","£1,352"," 12,539 ",,https://www.sothebysrealty.com/eng/sales/detail/180-l-691-j5n69q/woodlands-courtenay-avenue-london-n6-london-en,,51.575203,-0.168276,
london-5,Carlyle-Square.jpg,,Carlyle Square,"Carlyle Square, Chelsea, SW3, London, EN, United Kingdom",,"£14,450,000","£2,833"," 5,100 ",,https://www.sothebysrealty.com/eng/sales/detail/180-l-691-329se9/carlyle-square-chelsea-sw3-london-en,,51.48653,-0.171204,
london-6,Wilton-Place.jpg,,Wilton Place,"Wilton Place, London, EN, SW1X 8RL, United Kingdom",,"£11,750,000","£2,605"," 4,510 ",,https://www.sothebysrealty.com/eng/sales/detail/180-l-691-f957qn/london-en,,51.501655,-0.155786,
london-7,Springfield-Road.jpg,,Springfield Road,"Springfield Road, St John's Wood, London, EN, NW8 0QN, United Kingdom",,"£11,500,000","£1,757"," 6,545 ",,https://www.sothebysrealty.com/eng/sales/detail/180-l-691-4tskdx/london-en,,51.537513,-0.183685,
